City_ID,City,Lat,Lng,Max Temp,Humidity,Cloudiness,Wind Speed,Country,Date
0,grytviken,-54.2811,-36.5092,38.23,81,14,9.37,GS,1698703487
1,pimenta bueno,-11.6725,-61.1936,83.14,62,71,6.42,BR,1698703488
2,margaret river,-33.95,115.0667,48.52,90,47,8.84,AU,1698703488
3,kuanda,56.3161,116.0806,9.19,55,37,0.65,RU,1698703489
4,puerto natales,-51.7236,-72.4875,44.08,51,64,3.78,CL,1698703489
5,port-aux-francais,-49.35,70.2167,37.04,92,99,39.71,TF,1698703490
6,udachny,66.4167,112.4,-6.16,100,96,4.47,RU,1698703239
7,waitangi,-43.9535,-176.5597,57.81,84,100,15.01,NZ,1698703491
8,mount pearl,47.5166,-52.7813,38.84,74,100,10.36,CA,1698703491
9,tazovsky,67.4667,78.7,1.45,96,23,3.96,RU,1698703430
10,ipora,-16.4419,-51.1178,87.17,32,92,3.47,BR,1698703492
11,west island,-12.1568,96.8225,78.78,83,40,14.97,CC,1698703440
12,lethbridge,49.7,-112.8186,36.57,69,75,5.75,CA,1698703320
13,bredasdorp,-34.5322,20.0403,57.42,74,0,16.11,ZA,1698703493
14,peterhead,57.5058,-1.7981,43.2,59,16,21.0,GB,1698703493
15,yellowknife,62.456,-114.3525,32.41,93,75,9.22,CA,1698703287
16,saipan,15.1355,145.701,83.1,89,40,11.5,MP,1698703494
17,college,64.8569,-147.8028,35.46,82,100,0.0,US,1698703467
18,manismata,-2.4667,111.0333,74.32,98,79,2.17,ID,1698703495
19,northam,51.0333,-4.2167,53.65,94,100,18.19,GB,1698703496
20,ushuaia,-54.8,-68.3,40.66,60,75,20.71,AR,1698703256
21,dul'durga,50.6761,113.5931,14.88,99,89,2.64,RU,1698703496
22,port saint john's,-31.6229,29.5448,57.04,86,91,7.85,ZA,1698703497
23,port elizabeth,-33.918,25.5701,59.31,84,75,14.97,ZA,1698703404
24,wailua homesteads,22.0669,-159.378,83.19,71,40,10.36,US,1698703494
25,blackmans bay,-43.0167,147.3167,50.74,65,24,5.99,AU,1698703498
26,chilmari,25.5559,89.6715,70.74,83,52,6.35,BD,1698703499
27,adamstown,-25.066,-130.1015,73.38,73,100,8.77,PN,1698703499
28,pisco,-13.7,-76.2167,73.45,64,79,23.02,PE,1698703342
29,puerto ayora,-0.7393,-90.3518,80.56,91,100,5.01,EC,1698703500
30,yigo village,13.5361,144.8886,83.52,84,40,10.36,GU,1698703500
31,novobelokatay,55.7062,58.9549,26.87,97,94,5.95,RU,1698703501
32,isafjordur,66.0755,-23.124,35.51,74,76,5.35,IS,1698703501
33,eirunepe,-6.6603,-69.8736,84.52,68,100,1.7,BR,1698703502
34,mar del plata,-38.0023,-57.5575,55.42,56,0,13.8,AR,1698703503
35,margate,51.3813,1.3862,49.89,93,100,9.69,GB,1698703471
36,rundu,-17.9333,19.7667,77.04,47,3,11.01,NA,1698703506
37,saldanha,-33.0117,17.9442,62.65,69,0,20.51,ZA,1698703506
38,richards bay,-28.783,32.0377,58.39,84,97,8.14,ZA,1698703508
39,iqaluit,63.7506,-68.5145,10.13,72,75,24.16,CA,1698703495
40,iskateley,67.6803,53.1512,20.01,95,98,10.0,RU,1698703509
41,ribeira grande,38.5167,-28.7,67.77,77,40,14.97,PT,1698703509
42,happy valley-goose bay,53.3168,-60.3315,32.31,40,40,14.97,CA,1698703221
43,papatowai,-46.5619,169.4708,64.08,49,100,1.95,NZ,1698703510
44,aljustrel,37.8776,-8.1652,57.07,66,100,1.72,PT,1698703511
45,bethel,41.3712,-73.414,55.27,86,100,10.36,US,1698703495
46,susuman,62.7833,148.1667,1.98,97,22,1.01,RU,1698703512
47,baotou,40.6522,109.8222,50.43,41,22,3.53,CN,1698703513
48,neijiang,29.5835,105.0622,64.53,81,100,4.72,CN,1698703513
49,horta,38.5333,-28.6333,67.01,80,40,15.01,PT,1698703316
50,olonkinbyen,70.9221,-8.7187,34.61,72,100,11.7,SJ,1698703514
51,crane,31.3974,-102.3501,44.83,36,59,7.72,US,1698703226
52,el eulma,36.1528,5.6902,63.21,54,84,2.37,DZ,1698703515
53,palmer,42.1584,-72.3287,50.63,86,75,4.61,US,1698703294
54,edinburgh of the seven seas,-37.0676,-12.3116,55.06,90,92,29.97,SH,1698703517
55,hadibu,12.65,54.0333,79.36,75,100,12.37,YE,1698703517
56,fale old settlement,-9.3852,-171.2468,82.94,78,51,14.79,TK,1698703230
57,yerofey pavlovich,53.9667,121.9667,16.11,60,100,1.48,RU,1698703518
58,costa rica,-23.4167,-54.65,73.81,90,72,10.92,BR,1698703519
59,ciudad bolivar,8.1222,-63.5497,91.54,46,99,2.15,VE,1698703520
60,hamilton,39.1834,-84.5333,46.74,82,100,11.5,US,1698703160
61,port alfred,-33.5906,26.891,57.18,95,31,3.0,ZA,1698703515
62,stanley,54.868,-1.6985,44.76,96,75,4.61,GB,1698703522
63,punta arenas,-53.15,-70.9167,44.71,57,0,13.8,CL,1698703522
64,avarua,-21.2078,-159.775,77.05,73,75,19.57,CK,1698703523
65,nemuro,43.3236,145.575,50.02,82,47,10.87,JP,1698703523
66,invercargill,-46.4,168.35,54.01,89,99,3.0,NZ,1698703524
67,keflavik,64.0049,-22.5624,39.63,70,75,13.8,IS,1698703524
68,sandnessjoen,66.0217,12.6316,28.51,80,20,3.44,NO,1698703525
69,chortoq,41.0666,71.8553,60.75,43,100,2.19,UZ,1698703525
70,hawaiian paradise park,19.5933,-154.9731,80.89,88,74,1.99,US,1698703421
71,conception bay south,47.4999,-52.9981,39.43,73,89,8.59,CA,1698703526
72,kununurra,-15.7667,128.7333,78.78,83,58,8.05,AU,1698703369
73,north bend,43.4065,-124.2243,66.11,45,0,6.91,US,1698703527
74,kohat,33.582,71.4493,66.27,51,0,2.62,PK,1698703527
75,muar,2.0442,102.5689,77.04,96,96,3.67,MY,1698703472
76,kamaishi,39.2667,141.8833,51.15,91,0,4.05,JP,1698703528
77,port mathurin,-19.6833,63.4167,76.64,80,0,16.96,MU,1698703529
78,araxa,-19.5933,-46.9406,78.76,65,0,5.75,BR,1698703413
79,longyearbyen,78.2186,15.6401,31.84,80,100,10.36,SJ,1698703530
80,ebon,4.582,168.6964,83.25,73,60,6.38,MH,1698703530
81,walvis bay,-22.9575,14.5053,56.35,94,8,5.75,NA,1698703530
82,preobrazheniye,42.9019,133.9064,48.65,94,27,3.49,RU,1698703531
83,badger,64.8,-147.5333,35.37,83,100,0.0,US,1698703508
84,bilibino,68.0546,166.4372,13.64,56,76,6.42,RU,1698703533
85,jamestown,42.097,-79.2353,42.03,89,100,18.41,US,1698703533
86,columbia falls,48.3725,-114.1815,37.13,64,0,3.44,US,1698703534
87,la'ie,21.6477,-157.9253,87.19,68,17,5.01,US,1698703477
88,kouango,4.9934,19.9619,74.77,83,73,1.9,CF,1698703534
89,mukalla,14.5425,49.1242,77.59,85,63,0.96,YE,1698703535
90,albany,42.6001,-73.9662,46.89,86,100,1.01,US,1698703535
91,phu khiao,16.3765,102.1285,71.6,96,100,3.91,TH,1698703536
92,bamnet narong,15.4992,101.6897,73.78,85,96,11.21,TH,1698703536
93,la paz,-16.5,-68.15,67.98,20,40,9.22,BO,1698703328
94,isangel,-19.55,169.2667,77.11,69,40,4.61,VU,1698703276
95,santa terezinha,-29.9002,-50.0904,67.28,96,100,9.22,BR,1698703538
96,lebu,-37.6167,-73.65,50.97,63,65,12.1,CL,1698703538
97,ilhabela,-23.7781,-45.3581,76.37,95,100,5.23,BR,1698703283
98,brokopondo,4.75,-55.1667,86.23,56,10,9.35,SR,1698703540
99,akhtubinsk,48.2795,46.1722,46.63,74,53,8.08,RU,1698703540
100,kalmunai,7.4167,81.8167,77.59,87,96,3.49,LK,1698703541
101,touros,-5.1989,-35.4608,79.43,77,17,21.52,BR,1698703246
102,port moresby,-9.4431,147.1797,74.62,94,75,3.44,PG,1698703381
103,aasiaat,68.7098,-52.8699,25.14,77,6,18.7,GL,1698703542
104,bodaybo,57.8506,114.1933,14.88,54,99,3.18,RU,1698703543
105,port augusta,-32.5,137.7667,58.23,68,35,11.3,AU,1698703482
106,shihezi,44.3,86.0333,53.98,51,98,6.91,CN,1698703492
107,poco verde,-10.7083,-38.1833,74.68,63,61,13.13,BR,1698703544
108,kerikeri,-35.2268,173.9474,64.9,95,100,1.01,NZ,1698703545
109,yemetsk,63.4721,41.7941,20.48,94,18,3.36,RU,1698703545
110,armacao de buzios,-22.7469,-41.8817,80.76,87,100,4.45,BR,1698703546
111,tofol,5.3248,163.0078,85.78,79,75,2.3,FM,1698703546
112,tiksi,71.6872,128.8694,-7.06,100,21,3.78,RU,1698703547
113,yulinshi,38.2906,109.7494,54.12,30,4,6.64,CN,1698703547
114,thompson,55.7435,-97.8558,21.36,68,100,12.66,CA,1698703548
115,quincy,42.2529,-71.0023,53.44,96,100,1.99,US,1698703277
116,khandyga,62.6667,135.6,14.54,95,100,5.06,RU,1698703549
117,safi,32.1667,-8.8333,66.94,72,100,11.27,MA,1698703549
118,nahiyat ash shinafiyah,31.5874,44.6602,79.75,30,81,6.89,IQ,1698703550
119,tisul',55.7611,88.3122,22.62,77,100,13.4,RU,1698703550
120,hermanus,-34.4187,19.2345,58.23,75,1,20.15,ZA,1698703500
121,mersa matruh,31.3525,27.2453,75.4,73,40,5.75,EG,1698703551
122,topeka,39.0483,-95.678,44.38,40,0,8.05,US,1698702805
123,zaragoza,41.6561,-0.8773,59.02,46,0,20.71,ES,1698703552
124,adapazari,40.7806,30.4033,53.92,83,52,0.87,TR,1698703553
125,port lincoln,-34.7333,135.8667,56.88,52,36,10.58,AU,1698703553
126,yaren,-0.5472,166.916,83.19,69,62,3.94,NR,1698703393
127,balikpapan,-1.2675,116.8289,79.79,94,40,2.3,ID,1698703554
128,porto torres,40.835,8.3972,71.78,79,43,17.72,IT,1698703554
129,gelemso,8.8167,40.5167,62.65,77,65,1.66,ET,1698703555
130,vilyuchinsk,52.9306,158.4028,34.07,77,65,7.14,RU,1698703555
131,kapuskasing,49.4169,-82.4331,28.49,64,40,8.05,CA,1698703555
132,hilo,19.7297,-155.09,81.63,86,73,5.01,US,1698703442
133,vorgashor,67.5833,63.95,10.9,87,100,8.25,RU,1698703550
134,san pedro pochutla,15.7333,-96.4667,85.71,67,55,4.0,MX,1698703557
135,mount isa,-20.7333,139.5,80.37,57,11,0.0,AU,1698703557
136,coquimbo,-29.9533,-71.3436,65.93,68,0,14.97,CL,1698703558
137,hede,33.7681,120.2517,59.27,92,0,7.45,CN,1698703558
138,villa gesell,-37.2639,-56.973,56.05,58,26,16.55,AR,1698703263
139,malvan,16.0667,73.4667,79.38,78,39,3.2,IN,1698703559
140,san fernando,15.0286,120.6898,76.73,91,65,2.46,PH,1698703559
141,mount gambier,-37.8333,140.7667,53.13,57,76,7.2,AU,1698703560
142,aberdeen,57.1437,-2.0981,43.29,72,75,6.91,GB,1698703560
143,portland,45.5234,-122.6762,63.93,40,5,11.99,US,1698703221
144,sao gabriel da cachoeira,-0.1303,-67.0892,83.91,69,97,2.08,BR,1698703304
145,kulhudhuffushi,6.6221,73.07,81.28,76,100,4.83,MV,1698703561
146,georgetown,5.4112,100.3354,80.53,92,20,5.75,MY,1698703387
147,candido de abreu,-24.5669,-51.3333,72.63,98,58,3.6,BR,1698703367
148,cookeville,36.1628,-85.5016,47.79,95,100,5.75,US,1698703460
149,anadyr,64.75,177.4833,34.3,93,75,15.66,RU,1698703461
150,sao joao da barra,-21.6403,-41.0511,77.09,95,81,2.71,BR,1698703564
151,milazzo,38.2212,15.2383,73.58,65,62,21.32,IT,1698703565
152,magistral'nyy,56.1725,107.4458,17.37,55,7,2.39,RU,1698703565
153,bergerac,44.8333,0.5,53.82,87,75,3.44,FR,1698703566
154,murzuq,25.9155,13.9184,72.03,29,0,8.23,LY,1698703566
155,saint-joseph,-21.3667,55.6167,73.78,82,28,1.7,RE,1698703567
156,kodiak,57.79,-152.4072,45.91,93,100,10.36,US,1698703508
157,surab,28.4914,66.2585,57.81,47,47,1.19,PK,1698703568
158,juba,4.8517,31.5825,74.25,74,87,2.84,SS,1698703325
159,kencong,-8.2833,113.3667,74.08,90,11,2.55,ID,1698703569
160,nouadhibou,20.931,-17.0347,69.78,94,0,13.8,MR,1698703569
161,midvagur,62.0511,-7.1939,38.23,81,40,8.05,FO,1698703570
162,ilulissat,69.2167,-51.1,35.62,55,5,20.71,GL,1698703570
163,saint-philippe,-21.3585,55.7679,74.79,82,27,9.51,RE,1698703571
164,fort bragg,35.139,-79.006,84.78,48,0,14.97,US,1698703241
165,strasshof an der nordbahn,48.3158,16.6502,63.55,74,100,5.01,AT,1698703572
166,talodi,10.6325,30.3797,77.13,79,90,1.95,SD,1698703571
167,sitka,57.0531,-135.33,48.09,81,100,5.75,US,1698703550
168,tremonton,41.7119,-112.1655,47.86,37,0,5.01,US,1698703573
169,delacombe,-37.5891,143.8147,47.73,71,6,4.0,AU,1698703573
170,urangan,-25.3,152.9,71.64,70,0,14.16,AU,1698703574
171,hotan,37.0997,79.9269,56.77,20,0,5.37,CN,1698703574
172,nishinoomote,30.7333,131.0,69.76,67,17,11.36,JP,1698703575
173,berdigestyakh,62.0989,126.6992,-14.35,100,98,2.39,RU,1698703575
174,koraput,18.8167,82.7167,59.31,83,13,4.0,IN,1698703576
175,san luis de la loma,17.2706,-100.8939,83.88,88,34,3.8,MX,1698703457
176,edmundston,47.3737,-68.3251,30.74,93,100,1.14,CA,1698703285
177,lazaro cardenas,17.9583,-102.2,83.44,76,8,7.02,MX,1698703577
178,tamanrasset,22.785,5.5228,75.11,16,40,4.61,DZ,1698703578
179,seka,17.9285,103.9552,70.77,86,69,4.47,TH,1698703578
180,khvoynaya,58.9,34.5333,29.52,96,100,1.34,RU,1698703579
181,namsos,64.4662,11.4957,24.85,86,0,8.05,NO,1698703579
182,aykhal,66.0,111.5,-5.58,99,100,5.82,RU,1698703580
183,guerrero negro,27.9769,-114.0611,71.96,57,0,11.77,MX,1698703311
184,waajid,3.8096,43.2463,78.33,71,87,10.76,SO,1698703581
185,dudinka,69.4058,86.1778,1.67,97,100,1.99,RU,1698703581
186,vuktyl,63.8567,57.3094,19.11,70,100,10.0,RU,1698703582
187,glendive,47.1053,-104.7125,24.76,74,0,17.27,US,1698703582
188,phek,25.6667,94.5,46.96,97,12,1.7,IN,1698703583
189,le port,-20.9373,55.2919,75.2,87,35,4.21,RE,1698703583
190,kourou,5.1552,-52.6478,84.25,84,19,6.24,GF,1698703584
191,uturoa,-16.7333,-151.4333,79.05,80,8,18.25,PF,1698703584
192,astrakhan,46.3497,48.0408,40.87,100,0,4.47,RU,1698703585
193,lospalos,-8.5186,127.0025,75.47,85,80,5.46,TL,1698703585
194,xinyuan,37.3,99.0,22.89,58,0,6.4,CN,1698703586
195,zeerust,-25.5369,26.0751,52.93,76,100,17.83,ZA,1698703587
196,antalaha,-14.9003,50.2788,72.05,92,95,4.36,MG,1698703587
197,eldama ravine,0.0516,35.7308,55.85,99,98,4.36,KE,1698703588
198,olinda,-8.0089,-34.8553,80.33,69,20,14.97,BR,1698703589
199,inhambane,-23.865,35.3833,67.95,66,100,8.19,MZ,1698703590
200,kone,-21.0595,164.8658,73.89,56,96,4.34,NC,1698703522
201,whakatane,-37.9585,176.9854,63.88,98,100,5.99,NZ,1698703591
202,la passe,45.5549,-0.8967,56.98,82,70,24.14,FR,1698703592
203,gazojak,41.1875,61.4036,55.18,72,38,14.61,TM,1698703592
204,lompoc,34.6391,-120.4579,81.79,28,0,13.8,US,1698703593
205,norton shores,43.1689,-86.2639,37.98,54,75,10.36,US,1698703594
206,kapoeta,4.7717,33.5903,76.62,65,100,13.38,SS,1698703594
207,puerto baquerizo moreno,-0.9,-89.6,79.79,74,75,9.22,EC,1698703595
208,erdenet,49.0333,104.0833,24.04,88,99,4.72,MN,1698703595
209,thinadhoo,0.5333,72.9333,80.76,79,43,8.1,MV,1698703596
210,santo domingo de los colorados,-0.25,-79.15,73.58,90,100,2.62,EC,1698703367
211,chonchi,-42.6128,-73.8092,49.12,92,76,2.91,CL,1698703466
212,enewetak,11.3474,162.3373,83.57,79,92,21.81,MH,1698703597
213,pechora,65.1472,57.2244,21.85,70,100,8.99,RU,1698703598
214,naze,28.3667,129.4833,68.92,64,20,16.08,JP,1698703544
215,ketchikan,55.3422,-131.6461,45.07,70,75,0.0,US,1698703505
216,protaras,35.0125,34.0583,75.97,85,100,5.41,CY,1698703601
217,hecun,36.5333,114.1111,64.54,41,74,9.04,CN,1698703602
218,tarawa,1.419,172.984,80.69,83,75,5.75,KI,1698703602
219,kenai,60.5544,-151.2583,42.1,75,0,10.36,US,1698703500
220,puerto aysen,-45.4,-72.7,47.25,94,41,0.45,CL,1698703603
221,netrakona,24.8833,90.7167,68.81,89,62,4.76,BD,1698703603
222,port isabel,26.0734,-97.2086,54.01,70,100,23.02,US,1698703604
223,luanda,-8.8368,13.2343,76.78,86,20,11.7,AO,1698703604
224,opuwo,-18.0607,13.84,69.71,17,1,6.08,NA,1698703605
225,kavaratti,10.5669,72.642,81.5,77,100,6.73,IN,1698703605
226,kota kinabalu,5.9749,116.0724,75.18,94,20,5.01,MY,1698703606
227,codrington,-38.2667,141.9667,52.75,60,47,17.05,AU,1698703606
228,mirpur sakro,24.5474,67.6277,79.36,57,0,10.16,PK,1698703606
229,basse-terre,16.1667,-61.6667,79.84,78,0,6.91,GP,1698703607
230,miri,4.4148,114.0089,76.96,93,97,6.62,MY,1698703607
231,urucara,-2.5364,-57.76,89.62,46,94,7.27,BR,1698703608
232,cabo san lucas,22.8909,-109.9124,89.62,68,75,6.91,MX,1698703573
233,minas de marcona,-15.2119,-75.1103,74.23,45,38,9.1,PE,1698703578
234,fort mcmurray,56.7268,-111.381,31.51,47,0,9.22,CA,1698703520
235,tralee,52.2704,-9.7026,46.33,92,13,4.05,IE,1698703610
236,eten,-6.9081,-79.8642,71.85,73,0,25.32,PE,1698703610
237,revda,56.801,59.9303,21.33,96,93,1.43,RU,1698703610
238,reggane,26.7158,0.1714,86.52,13,59,5.59,DZ,1698703611
239,quelimane,-17.8786,36.8883,74.7,78,44,5.75,MZ,1698703611
240,gornopravdinsk,60.05,69.9,15.37,94,89,6.24,RU,1698703612
241,sept-iles,50.2001,-66.3821,37.06,62,100,4.0,CA,1698703612
242,st. john's,47.5649,-52.7093,39.67,75,100,10.36,CA,1698703408
243,al bawiti,28.3492,28.8659,71.46,70,33,8.21,EG,1698703613
244,lata,40.1629,-8.3327,54.91,92,84,3.78,PT,1698703614
245,houghton,47.1219,-88.569,31.64,87,100,11.5,US,1698703614
246,fisterra,42.9049,-9.2629,59.02,68,0,19.26,ES,1698703615
247,yarmouth,41.7057,-70.2286,56.97,97,100,14.0,US,1698703574
248,ambatondrazaka,-17.8333,48.4167,64.8,92,11,1.45,MG,1698703615
249,haiku-pauwela,20.9219,-156.3051,82.42,66,40,17.27,US,1698703616
250,watsa,3.0372,29.5355,65.7,96,62,2.57,CD,1698703616
251,gereida,11.2811,25.1414,82.8,26,97,5.17,SD,1698703617
252,bad duben,51.5917,12.5849,56.28,79,100,4.34,DE,1698703617
253,prince albert,53.2001,-105.7677,26.55,43,20,9.22,CA,1698703390
254,lorengau,-2.0226,147.2712,80.55,78,57,4.7,PG,1698703618
255,juneau,58.3019,-134.4197,40.41,97,100,14.97,US,1698703547
256,chinde,26.8418,88.0763,57.43,70,87,5.14,NP,1698703619
257,emerald,-23.5333,148.1667,72.34,45,3,8.46,AU,1698703619
258,veraval,20.9,70.3667,79.09,54,29,4.63,IN,1698703620
259,bakaly,55.1789,53.8028,29.79,94,100,7.07,RU,1698703620
260,qaqortoq,60.7167,-46.0333,41.56,58,100,13.6,GL,1698703510
261,kingston,17.997,-76.7936,85.24,78,40,5.75,JM,1698703586
262,inga,-7.2808,-35.6044,76.68,62,20,11.61,BR,1698703621
263,utrik,11.2278,169.8474,82.56,80,63,19.1,MH,1698703622
264,eyl,7.9803,49.8164,80.22,76,98,8.08,SO,1698703541
265,parnarama,-5.6817,-43.0933,89.58,23,28,2.68,BR,1698703623
266,tindouf,27.6711,-8.1474,79.61,21,93,8.97,DZ,1698703623
267,stettler,52.3168,-112.7186,31.75,69,100,8.05,CA,1698703342
268,palembang,-2.9167,104.7458,78.89,89,40,0.0,ID,1698703612
269,carnarvon,-24.8667,113.6333,69.3,74,0,20.65,AU,1698703625
270,polyarnyy,69.1989,33.4478,22.73,90,100,18.79,RU,1698703461
271,vila franca do campo,37.7167,-25.4333,64.81,99,17,6.11,PT,1698703626
272,egilsstadir,65.2653,-14.3948,28.38,85,43,5.91,IS,1698703626
273,ayacucho,-13.1583,-74.2239,72.91,40,42,9.91,PE,1698703627
274,acarau,-2.8856,-40.12,80.1,78,77,21.83,BR,1698703523
275,afaahiti,-17.75,-149.2833,82.27,84,15,20.62,PF,1698703602
276,ashgabat,37.95,58.3833,65.23,49,91,12.91,TM,1698703628
277,nabatiye et tahta,33.3789,35.4839,75.56,53,100,4.7,LB,1698703629
278,the bottom,17.6259,-63.2492,79.36,75,48,15.26,BQ,1698703629
279,bikenibeu village,1.3673,173.1241,80.56,83,75,5.75,KI,1698703629
280,ust-nera,64.5667,143.2,-0.29,100,94,4.34,RU,1698703592
281,pindushi,62.9152,34.58,26.24,97,100,2.19,RU,1698703630
282,contamana,-7.3333,-75.0167,92.55,41,100,4.92,PE,1698703631
283,yatou,37.15,122.3833,61.47,93,5,8.5,CN,1698703631
284,ben gardane,33.1378,11.2197,82.56,16,92,12.59,TN,1698703632
285,jinka,5.65,36.65,61.05,93,100,4.16,ET,1698703632
286,red hill,33.9996,-79.2581,80.78,75,0,7.61,US,1698703405
287,trinity beach,-16.7888,145.6968,76.05,69,80,9.22,AU,1698703633
288,okhotsk,59.3833,143.3,18.99,87,100,3.94,RU,1698703474
289,yuzhno-kurilsk,44.0306,145.8556,46.38,76,17,8.63,RU,1698703505
290,talcahuano,-36.7167,-73.1167,50.79,64,99,16.26,CL,1698703635
291,sciacca,37.5082,13.0881,69.44,87,100,14.18,IT,1698703635
292,arzgir,45.3728,44.2206,54.36,59,1,8.46,RU,1698703636
293,holualoa,19.6228,-155.9522,80.87,71,20,9.22,US,1698703636
294,verkhnevilyuysk,63.4453,120.3167,4.08,98,92,2.37,RU,1698703637
295,san patricio,28.017,-97.5169,49.91,58,98,18.81,US,1698703464
296,persembe,41.0656,37.7714,62.02,84,97,5.7,TR,1698703638
297,asyut,27.181,31.1837,78.4,44,0,4.63,EG,1698703638
298,mokhsogollokh,61.4681,128.9203,-4.92,100,91,3.22,RU,1698703639
299,tolanaro,-25.0319,46.9987,73.27,91,100,3.58,MG,1698703614
300,mumbwa,-14.9783,27.0619,68.2,80,82,7.18,ZM,1698703640
301,gizo,-8.103,156.8419,82.2,75,100,3.49,SB,1698703641
302,mil'kovo,55.6078,37.7956,49.41,100,100,11.16,RU,1698703641
303,pacasmayo,-7.4006,-79.5714,69.64,78,86,15.5,PE,1698703642
304,yung shue wan,22.2333,114.1167,75.67,81,99,18.23,HK,1698703643
305,ploneour-lanvern,47.9,-4.2833,53.89,93,69,5.75,FR,1698703643
306,praia da vitoria,38.7333,-27.0667,65.75,90,70,12.19,PT,1698703644
307,severo-yeniseyskiy,60.3725,93.0408,-1.46,99,75,2.24,RU,1698703645
308,pustoshka,56.3355,29.369,46.53,93,98,6.89,RU,1698703645
309,gadzhiyevo,69.2551,33.3362,28.08,88,100,18.07,RU,1698703646
310,corn island,12.1694,-83.0418,81.79,76,99,9.84,NI,1698703647
311,griffith,41.5284,-87.4237,42.15,40,0,11.5,US,1698703648
312,chukhloma,58.7525,42.6825,27.09,85,95,10.0,RU,1698703649
313,muscatine,41.4667,-91.1335,39.38,37,0,9.22,US,1698703497
314,anqing,30.5092,117.0506,64.85,54,0,3.06,CN,1698703650
315,yanqul,23.5905,56.5501,75.0,47,54,2.37,OM,1698703650
316,hithadhoo,-0.6,73.0833,80.4,80,50,9.95,MV,1698703651
317,belle fourche,44.6714,-103.8522,41.5,39,51,22.3,US,1698703652
318,sao vicente,-23.9631,-46.3919,89.78,51,100,3.0,BR,1698703652
319,male,4.1748,73.5089,78.75,83,75,4.61,MV,1698703653
320,wasco,35.5941,-119.341,79.43,17,0,3.44,US,1698703654
321,kapa'a,22.0752,-159.319,84.52,70,40,10.36,US,1698703654
322,colonia,50.9333,6.95,55.96,91,75,6.91,DE,1698703560
323,tura,25.5198,90.2201,65.08,91,54,4.0,IN,1698703607
324,almenara,-16.1836,-40.6944,82.02,38,85,5.75,BR,1698703655
325,petropavlovsk-kamchatsky,53.0452,158.6483,32.59,82,0,11.01,RU,1698703656
326,sferracavallo,42.726,12.0956,70.63,97,100,17.4,IT,1698703657
327,howrah,22.5892,88.3103,77.0,83,18,3.44,IN,1698703657
328,yuci,37.6803,112.7319,44.35,61,0,4.47,CN,1698703658
329,keokuk,40.3973,-91.3849,39.65,55,20,10.36,US,1698703180
330,redding,40.5865,-122.3917,76.62,14,0,8.05,US,1698703387
331,socorro,31.6546,-106.3033,51.66,30,75,9.22,US,1698703662
332,shimoda,34.6667,138.95,60.1,74,72,4.16,JP,1698703509
333,amga,60.8953,131.9608,11.75,90,100,5.19,RU,1698703538
334,sungai penuh,-2.0833,101.3833,62.46,92,93,4.16,ID,1698703577
335,taupo,-38.6833,176.0833,57.51,96,100,6.35,NZ,1698703664
336,jodar,37.8406,-3.3526,53.73,61,73,1.77,ES,1698703664
337,ust'-ilimsk,58.0006,102.6619,14.43,94,72,4.0,RU,1698703665
338,kushiro,42.975,144.3747,49.15,93,40,2.3,JP,1698703459
339,jiangyou,31.7667,104.7167,64.18,81,100,0.6,CN,1698703666
340,pucon,-39.2822,-71.9543,42.94,96,99,1.99,CL,1698703667
341,santiago del torno,-17.9833,-63.3833,86.18,45,11,13.42,BO,1698703667
342,souillac,-20.5167,57.5167,75.36,84,13,9.64,MU,1698703668
343,cartagena,10.3997,-75.5144,83.82,84,20,4.61,CO,1698703668
344,maloye ganyushkino,46.6,49.2667,49.03,62,0,3.62,KZ,1698703669
345,saudarkrokur,65.7461,-19.6394,29.48,81,55,7.81,IS,1698703670
346,ta`u,-14.2336,-169.5144,80.82,81,12,24.94,AS,1698703533
347,big rapids,43.6981,-85.4837,35.67,52,75,10.36,US,1698703671
348,alice springs,-23.7,133.8833,72.95,17,60,8.05,AU,1698703500
349,shache,38.4167,77.2406,56.71,26,7,3.96,CN,1698703559
350,callaway,30.153,-85.5699,81.0,72,0,9.22,US,1698703599
351,sinabang,2.4803,96.3801,77.34,87,100,4.27,ID,1698703673
352,geraldton,-28.7667,114.6,61.21,48,0,12.66,AU,1698703674
353,houma,29.5958,-90.7195,70.0,68,40,14.97,US,1698703675
354,kudahuvadhoo,2.6708,72.8944,81.72,72,43,6.4,MV,1698703675
355,nieuw amsterdam,5.8833,-55.0833,84.02,81,40,0.0,SR,1698703676
356,la rinconada,37.4873,-5.9826,63.05,73,0,1.14,ES,1698703676
357,flying fish cove,-10.4217,105.6791,78.48,88,75,9.22,CX,1698703677
358,kuta,-8.7233,115.1723,78.75,100,20,1.14,ID,1698703677
359,atafu village,-8.5421,-172.5159,83.88,76,78,15.82,TK,1698703678
360,darnah,32.767,22.6367,71.8,80,18,12.68,LY,1698703678
361,tazacorte,28.629,-17.9293,74.37,94,40,1.99,ES,1698703669
362,evinayong,1.4368,10.5512,68.95,99,99,2.71,GQ,1698703679
363,gemena,3.25,19.7667,73.56,93,80,2.89,CD,1698703680
364,canton,23.1167,113.25,67.95,71,98,5.37,CN,1698703575
365,sao felix do xingu,-6.6447,-51.995,88.3,36,70,0.54,BR,1698703681
366,vilyuysk,63.7553,121.6247,-0.72,100,94,2.89,RU,1698703573
367,kismayo,-0.3582,42.5454,78.98,84,45,7.72,SO,1698703682
368,manay,7.215,126.5397,76.32,86,91,3.96,PH,1698703682
369,tiznit,29.5833,-9.5,67.87,47,95,1.52,MA,1698703683
370,botou,38.0667,116.5667,57.97,60,0,6.2,CN,1698703684
371,nizhniy odes,63.6445,54.856,19.15,96,96,5.12,RU,1698703684
372,cudillero,43.5622,-6.1459,59.67,65,75,11.5,ES,1698703685
373,maputo,-25.9653,32.5892,55.89,85,100,7.29,MZ,1698703685
374,juan griego,11.0817,-63.9655,84.25,80,98,16.98,VE,1698703686
375,agrinio,38.6214,21.4078,63.97,80,0,2.08,GR,1698703686
376,usogorsk,63.4106,48.6872,25.66,83,100,2.53,RU,1698703687
377,charters towers,-20.1,146.2667,72.97,52,25,8.52,AU,1698703687
378,taltal,-25.4,-70.4833,62.89,76,60,7.27,CL,1698703688
379,beira,-19.8436,34.8389,73.96,83,96,16.62,MZ,1698703688
380,choibalsan,48.0667,114.5,18.63,96,92,7.31,MN,1698703591
381,sarmiento,-45.5882,-69.07,45.66,56,99,18.23,AR,1698703689
382,laghouat,33.8,2.8651,67.62,50,100,6.31,DZ,1698703690
383,magadan,59.5667,150.8,16.86,82,4,3.49,RU,1698703536
384,denia,38.8408,0.1057,68.47,42,39,18.01,ES,1698703691
385,salmon arm,50.6998,-119.3024,45.32,57,35,3.2,CA,1698703691
386,trincomalee,8.5711,81.2335,75.49,94,97,1.88,LK,1698703692
387,klaksvik,62.2266,-6.589,38.32,60,94,18.34,FO,1698703692
388,harper,4.375,-7.7169,76.6,92,84,3.24,LR,1698703426
389,illizi,26.4833,8.4667,79.83,17,1,8.46,DZ,1698703693
390,mahdia,35.5047,11.0622,80.55,65,62,18.99,TN,1698703693
391,remire-montjoly,4.9167,-52.2667,84.24,84,20,8.05,GF,1698703694
392,tianshui,34.5439,105.6897,49.44,87,99,2.26,CN,1698703694
393,talnakh,69.4865,88.3972,1.2,96,100,5.64,RU,1698703695
394,kidal,18.4411,1.4078,83.7,10,31,10.98,ML,1698703695
395,el nido,11.1858,119.3956,81.86,77,88,7.2,PH,1698703696
396,haraiya,26.8,82.4667,69.3,58,68,2.06,IN,1698703697
397,umm kaddadah,13.6017,26.6876,86.83,22,97,11.05,SD,1698703698
398,antonio enes,-16.2325,39.9086,77.13,80,36,9.08,MZ,1698703699
399,lihue,21.9789,-159.3672,83.79,69,40,10.36,US,1698703456
400,vadso,70.0744,29.7487,30.36,86,75,9.22,NO,1698703700
401,thabazimbi,-24.5917,27.4116,55.78,68,100,7.7,ZA,1698703700
402,tabou,4.423,-7.3528,76.71,91,81,3.06,CI,1698703659
403,parry sound,45.3501,-80.033,36.93,65,100,10.69,CA,1698703701
404,la union,-5.4,-80.75,83.19,47,96,18.05,PE,1698703702
405,dalnegorsk,44.5604,135.5701,49.6,89,60,3.0,RU,1698703702
406,kokkola,63.8385,23.1307,29.93,87,100,2.3,FI,1698703702
407,george town,5.4112,100.3354,80.53,89,20,5.75,MY,1698703703
408,arauca,7.0847,-70.7591,84.4,72,79,3.51,CO,1698703703
409,merizo village,13.2658,144.6691,84.76,95,98,13.24,GU,1698703704
410,san antonio de pale,-1.4014,5.6325,79.7,85,88,13.42,GQ,1698703653
411,san mariano,7.5,126.0,72.72,93,82,2.24,PH,1698703705
412,manokwari,-0.8667,134.0833,79.21,79,100,1.28,ID,1698703705
413,sarikei,2.1167,111.5167,72.84,99,100,1.86,MY,1698703706
414,yamada,39.4667,141.95,52.59,83,0,4.05,JP,1698703707
415,puerto madryn,-42.7692,-65.0385,49.98,52,78,17.49,AR,1698703707
416,tsiombe,-25.3,45.4833,69.94,88,88,4.79,MG,1698703708
417,pico truncado,-46.7949,-67.9573,44.76,33,97,15.82,AR,1698703708
418,chapada dos guimaraes,-15.4606,-55.7497,73.06,76,100,4.47,BR,1698703709
419,pervomayskoye,43.919,46.7102,56.46,82,17,12.12,RU,1698703709
420,cristalina,-16.7686,-47.6136,81.46,36,96,2.82,BR,1698703710
421,noshiro,40.2039,140.0242,49.86,85,4,5.44,JP,1698703711
422,turpan,42.9333,89.1667,56.75,38,26,1.28,CN,1698703659
423,ambon,-3.6954,128.1814,77.14,94,40,5.75,ID,1698703711
424,ancud,-41.8697,-73.8203,46.02,81,29,8.63,CL,1698703712
425,jarocin,51.9727,17.5026,54.84,90,99,10.67,PL,1698703712
426,khorinsk,52.1657,109.7726,16.07,54,86,1.39,RU,1698703713
427,papao,-17.75,-149.55,83.88,83,12,20.09,PF,1698703713
428,port macquarie,-31.4333,152.9167,74.89,40,50,2.15,AU,1698703714
429,zalingei,12.9096,23.4741,79.47,17,100,4.36,SD,1698703714
430,bela vista do paraiso,-22.9967,-51.1906,81.64,82,88,2.51,BR,1698703715
431,doaba,33.4244,70.7364,65.12,49,0,2.06,PK,1698703715
432,bubaque,11.2833,-15.8333,83.57,70,100,6.98,GW,1698703497
433,nar'yan-mar,67.6713,53.087,20.1,95,97,10.0,RU,1698703716
434,novomichurinsk,54.0384,39.7479,48.11,89,96,14.2,RU,1698703717
435,kalachinsk,55.0529,74.5751,24.3,94,100,13.58,RU,1698703717
436,kupang,-10.1667,123.5833,81.18,74,20,11.5,ID,1698703718
437,quellon,-43.1167,-73.6167,47.25,57,23,6.04,CL,1698703718
438,guarapari,-20.6667,-40.4975,78.89,87,88,14.52,BR,1698703449
439,miles city,46.4083,-105.8406,29.37,69,40,16.11,US,1698703719
440,sao miguel do araguaia,-13.275,-50.1628,93.02,27,31,3.87,BR,1698703720
441,bento goncalves,-29.1714,-51.5192,66.56,93,90,4.0,BR,1698703721
442,east london,-33.0153,27.9116,57.24,80,33,8.14,ZA,1698703721
443,pryamitsyno,51.6561,35.9314,55.54,72,78,12.3,RU,1698703721
444,yilan,24.757,121.753,72.91,94,61,4.34,TW,1698703722
445,grand falls-windsor,48.9332,-55.6649,36.5,66,100,1.01,CA,1698703608
446,prince george,53.9166,-122.753,44.26,44,0,3.44,CA,1698703570
447,bontang,0.1333,117.5,80.44,75,9,2.17,ID,1698703723
448,nova sintra,14.8667,-24.7167,73.85,69,55,4.56,CV,1698703724
449,sao jose da coroa grande,-8.8978,-35.1478,77.59,70,76,10.54,BR,1698703724
450,nichinan,31.6,131.3667,60.71,78,20,6.24,JP,1698703725
451,tchollire,8.4022,14.1698,73.51,84,100,3.44,CM,1698703637
452,yeppoon,-23.1333,150.7333,71.38,46,2,3.85,AU,1698703726
453,vorkuta,67.5,64.0,11.73,86,100,8.03,RU,1698703726
454,chegdomyn,51.1167,133.0167,21.18,88,56,2.33,RU,1698703727
455,manhattan,40.7834,-73.9662,58.89,75,100,17.27,US,1698703514
456,manta,-0.95,-80.7333,80.38,78,75,11.5,EC,1698703728
457,akrehamn,59.2667,5.1833,39.45,56,0,8.05,NO,1698703700
458,luderitz,-26.6481,15.1594,58.23,78,0,16.17,NA,1698703588
459,vallenar,-28.5708,-70.7581,78.49,22,58,10.78,CL,1698703729
460,sierra grande,-41.606,-65.3557,50.99,38,82,17.16,AR,1698703730
461,kaka,37.3482,59.6143,65.1,48,100,17.22,TM,1698703730
462,northport,33.229,-87.5772,54.09,81,100,11.5,US,1698703731
463,arno,60.1167,18.6333,38.79,97,100,21.5,SE,1698703511
464,eydhafushi,5.1033,73.0708,79.5,83,84,7.63,MV,1698703731
465,sevastopol,44.6,33.5333,62.62,67,0,6.24,UA,1698703732
466,melfort,52.8667,-104.6177,25.68,53,74,9.51,CA,1698703684
467,alofi,-19.0595,-169.9187,80.49,65,75,16.11,NU,1698703733
468,itupeva,-23.1531,-47.0578,82.13,61,0,4.61,BR,1698703538
469,peace river,56.2501,-117.286,33.96,77,100,5.1,CA,1698703734
470,weno,7.4515,151.8468,83.39,76,47,12.19,FM,1698703476
471,yinzhu,35.8786,119.9753,63.37,70,3,10.18,CN,1698703734
472,shakiso,5.75,38.9167,57.81,98,47,2.95,ET,1698703643
473,sabha,27.0377,14.4283,74.12,24,5,6.98,LY,1698703577
474,kayangel,8.0823,134.7173,83.34,74,28,7.25,PW,1698703736
475,namibe,-15.1961,12.1522,66.79,81,0,7.81,AO,1698703736
476,novoutkinsk,56.993,59.5571,21.74,97,93,1.32,RU,1698703736
477,maumere,-8.6199,122.2111,78.98,84,24,3.13,ID,1698703737
478,shaowu,27.3409,117.4831,59.41,88,6,2.1,CN,1698703738
479,ust-tsilma,65.441,52.1498,21.61,79,94,8.99,RU,1698703738
480,camara de lobos,32.6333,-16.9667,70.72,92,75,6.91,PT,1698703738
481,la libertad,-2.2333,-80.9,78.46,73,75,12.66,EC,1698703739
482,salalah,17.0151,54.0924,77.09,83,0,4.61,OM,1698703739
483,ocean shores,46.9737,-124.1563,61.95,60,0,9.22,US,1698703740
484,nadi,-17.8,177.4167,86.0,66,20,11.5,FJ,1698703740
485,letlhakeng,-24.0944,25.0298,54.14,76,67,20.24,BW,1698703741
486,farafangana,-22.8167,47.8333,73.29,92,7,3.51,MG,1698703741
487,kingscliff,-28.2667,153.5667,77.95,60,1,17.27,AU,1698703613
488,datong,40.0936,113.2914,49.19,45,12,4.03,CN,1698703742
489,sathupalli,17.2497,80.869,69.67,90,53,3.58,IN,1698703743
490,dahab,28.501,34.5134,77.29,51,0,1.45,EG,1698703743
491,faya-largeau,17.9257,19.1043,79.43,18,2,14.43,TD,1698703743
492,arteche,12.2645,125.4048,78.17,91,100,7.96,PH,1698703617
493,lastoursville,-0.8143,12.7287,72.55,99,100,2.48,GA,1698703744
494,jiran,24.3167,74.8833,70.68,44,91,5.41,IN,1698703745
495,al ghayzah,16.2079,52.176,77.74,76,98,5.08,YE,1698703702
496,awjilah,29.1081,21.2869,72.19,53,99,7.38,LY,1698703746
497,porto novo,6.4965,2.6036,82.22,83,92,5.01,BJ,1698703599
498,al jumum,21.6169,39.6981,82.98,59,4,4.85,SA,1698703747
499,sungai raya,0.7,108.9,77.34,87,90,0.58,ID,1698703747
500,pokhvistnevo,53.6524,52.1274,33.03,87,100,10.71,RU,1698703748
501,behshahr,36.6923,53.5526,64.38,84,100,8.34,IR,1698703748
502,piracaia,-23.0539,-46.3581,76.24,86,100,3.27,BR,1698703691
503,kuqa,41.7278,82.9364,55.47,37,12,2.33,CN,1698703749
504,la romana,18.4273,-68.9728,77.36,100,75,0.0,DO,1698703750
505,constantia,44.1833,28.65,57.88,74,0,8.01,RO,1698703588
506,edgewater,28.9889,-80.9023,81.18,75,40,9.22,US,1698703668
507,santana,-0.0583,-51.1817,87.98,58,0,11.5,BR,1698703752
508,metlika,45.6472,15.3142,63.41,76,100,2.86,SI,1698703752
509,kailua-kona,19.6406,-155.9956,87.28,69,20,9.22,US,1698703753
510,bodo,67.28,14.405,26.78,81,0,13.8,NO,1698703689
511,mianwali,32.5741,71.5264,74.73,36,0,2.48,PK,1698703754
512,sarreguemines,49.0833,7.3333,52.34,92,100,14.12,FR,1698703754
513,bandarbeyla,9.4942,50.8122,79.68,81,100,11.48,SO,1698703755
514,ola,59.5833,151.2833,20.34,71,5,5.68,RU,1698703755
515,callao,-12.0667,-77.15,70.09,68,0,19.57,PE,1698703756
516,osakarovka,50.565,72.5692,42.19,78,100,13.94,KZ,1698703757
517,asuncion nochixtlan,17.4667,-97.2333,65.37,64,76,12.48,MX,1698703757
518,valley city,46.9233,-98.0032,27.12,93,100,18.41,US,1698703758
519,pacocha,-17.5833,-71.3333,63.55,86,15,10.22,PE,1698703759
520,nurota,40.5614,65.6886,57.06,53,94,14.0,UZ,1698703759
521,isiro,2.7739,27.616,69.58,93,92,3.29,CD,1698703760
522,uliastay,47.7417,96.8444,32.43,70,82,4.54,MN,1698703760
523,khartoum,15.5518,32.5324,89.85,33,79,8.81,SD,1698703761
524,ojocaliente,21.8775,-102.6754,80.91,41,58,10.71,MX,1698703762
525,ust'-barguzin,53.45,108.9833,20.88,61,12,3.98,RU,1698703719
526,rongelap,11.1635,166.8941,83.41,77,100,21.16,MH,1698703763
527,forster,-32.1667,152.5167,79.29,44,70,4.25,AU,1698703488
528,hjorring,57.4642,9.9823,40.48,80,100,21.32,DK,1698703764
529,slavuta,50.3016,26.8651,54.77,69,98,8.3,UA,1698703764
530,novyy urengoy,66.0833,76.6333,8.74,92,12,4.54,RU,1698703765
531,vakarai,55.6035,23.8213,45.12,93,76,6.87,LT,1698703765
532,vangaindrano,-23.35,47.6,73.98,93,29,6.02,MG,1698703766
533,phalodi,27.1333,72.3667,80.91,32,68,8.25,IN,1698703767
534,queenstown,-31.8976,26.8753,45.63,80,46,4.38,ZA,1698703617
535,albina,5.5,-54.05,80.42,78,52,7.34,SR,1698703767
536,vostochnyy,55.8167,37.8667,48.13,100,100,11.36,RU,1698703768
537,baiti,13.745,-14.7482,79.63,74,71,1.66,SN,1698703768
538,hasaki,35.7333,140.8333,57.29,59,0,5.01,JP,1698703595
539,malacca,2.196,102.2405,77.04,94,100,8.03,MY,1698703769
540,kapshagay,43.8833,77.0833,59.04,63,100,12.77,KZ,1698703770
541,shingu,33.7333,135.9833,55.96,82,18,2.3,JP,1698703770
542,huarmey,-10.0681,-78.1522,71.31,77,21,10.87,PE,1698703771
543,tsengel,49.4783,100.8894,27.59,79,97,1.32,MN,1698703771
544,aur,8.1499,171.1687,83.53,78,46,19.17,MH,1698703772
545,ponta delgada,37.7333,-25.6667,65.12,72,40,6.91,PT,1698703772
546,par naogaon,24.8029,88.9508,70.74,89,100,4.41,BD,1698703773
547,butembo,0.15,29.2833,58.28,91,37,3.62,CD,1698703773
548,tokamachi,37.1333,138.7667,51.26,88,0,3.24,JP,1698703774
549,pampa,35.5362,-100.9599,47.57,27,0,8.05,US,1698703780
550,nongstoin,25.5167,91.2667,55.62,44,99,5.08,IN,1698703784
551,antsiranana,-12.2787,49.2917,76.37,80,100,13.2,MG,1698703552
552,siracusa,37.0881,15.2792,70.97,87,36,11.16,IT,1698703767
553,omdurman,15.6445,32.4777,88.72,36,78,8.66,SD,1698703796
554,petukhovo,55.0692,67.9019,25.75,96,100,10.0,RU,1698703803
555,fortuna,40.5982,-124.1573,66.92,52,0,9.22,US,1698703804
556,price,39.5994,-110.8107,49.12,19,0,4.61,US,1698703804
557,luau,-10.7073,22.2247,66.38,95,100,1.99,AO,1698703809
558,westport,41.1415,-73.3579,58.98,86,100,10.36,US,1698703519
559,selfoss,63.9331,-20.9971,33.04,80,24,6.78,IS,1698703681
560,sosnogorsk,63.6023,53.8817,21.54,85,92,10.0,RU,1698703812
561,san agustin de valle fertil,-30.6335,-67.4682,72.66,31,27,13.11,AR,1698703812
562,kozel'sk,54.0375,35.7716,46.33,94,85,10.71,RU,1698703813
563,klyuchi,52.2667,79.1667,43.93,91,100,9.04,RU,1698703813
564,castillos,-34.1667,-53.8333,56.25,92,100,16.4,UY,1698703814
565,manadhoo,5.7667,73.3833,81.57,75,98,6.98,MV,1698703814
566,trapani,37.8333,12.6667,70.5,80,89,20.92,IT,1698703815
567,south lake tahoe,38.9332,-119.9844,58.17,25,0,5.75,US,1698703816
568,chibougamau,49.9168,-74.3659,26.22,80,75,8.05,CA,1698703521
569,chayan,43.0297,69.3772,59.99,57,100,5.91,KZ,1698703817
570,ulaangom,49.9811,92.0667,28.13,86,62,1.72,MN,1698703814
571,vanimo,-2.6741,141.3028,81.59,78,91,14.54,PG,1698703819
572,lagunillas,10.1301,-71.2595,83.46,72,53,2.21,VE,1698703820
573,la sarre,48.8002,-79.1996,29.14,64,100,5.84,CA,1698703820
574,oltinko'l,40.8011,72.1634,65.12,35,100,3.11,UZ,1698703821
575,borogontsy,62.6683,131.1683,8.78,93,100,6.87,RU,1698703731
576,arraial do cabo,-22.9661,-42.0278,76.86,88,0,4.61,BR,1698703823
577,laguna,38.421,-121.4238,76.08,27,0,5.75,US,1698703605
578,shanga,11.2106,4.5788,83.25,30,77,1.45,NG,1698703824
579,arrifes,37.7667,-25.7,62.85,72,40,6.91,PT,1698703824
